[
  {
    "lat": 36.4802,
    "lng": 127.2612,
    "name_ko": "KDI국제정책대학원대학교",
    "name_en": "KDI School of Public Policy and Management",
    "campus_ko": "KDI국제정책대학원대학교",
    "campus_en": "KDI School of Public Policy and Management",
    "addr_ko": "(30149) 세종특별자치시 남세종로 263",
    "addr_en": "(30149) 263 Namsejong-ro, Sejong",
    "num_ap": 0,
    "realm": "kdis.ac.kr"
  },
  {
    "lat": 37.4512349,
    "lng": 127.1293943,
    "name_ko": "가천대학교",
    "name_en": "Gachon University",
    "campus_ko": "가천대학교 글로벌캠퍼스",
    "campus_en": "Gachon University Global Campus",
    "addr_ko": "경기도 (13120) 경기도 성남시 수정구 성남대로 1342",
    "addr_en": "(13120) 1342 Seongnamdaero, Sujeong-gu, Seongnam-si, Gyeonggi-do, Gyeonggi-do",
    "num_ap": 2360,
    "realm": "gachon.ac.kr"
  },
  {
    "lat": 37.4222545,
    "lng": 126.6874834,
    "name_ko": "가천대학교",
    "name_en": "Gachon University",
    "campus_ko": "가천대학교 메디컬캠퍼스",
    "campus_en": "Gachon University Medical Campus",
    "addr_ko": "인천광역시 (21936) 인천광역시 연수구 함박뫼로 191",
    "addr_en": "(21936) 191 Hambangmoe-ro, Yeonsu-gu, Incheon, Incheon",
    "num_ap": 110,
    "realm": "gachon.ac.kr"
  },
  {
    "lat": 37.7688,
    "lng": 128.8701,
    "name_ko": "강릉원주대학교",
    "name_en": "Gangneung-Wonju National University",
    "campus_ko": "강릉원주대학교 강릉캠퍼스",
    "campus_en": "Gangneung-Wonju National University Gangneung Campus",
    "addr_ko": "(25457) 강원특별자치도 강릉시 죽헌길 7",
    "addr_en": "(25457) 7 Jukheon-gil, Gangneung-si, Gangwon-do",
    "num_ap": 0,
    "realm": "gwnu.ac.kr"
  },
  {
    "lat": 37.3048,
    "lng": 127.9236,
    "name_ko": "강릉원주대학교",
    "name_en": "Gangneung-Wonju National University",
    "campus_ko": "강릉원주대학교 원주캠퍼스",
    "campus_en": "Gangneung-Wonju National University Wonju Campus",
    "addr_ko": "(26403) 강원특별자치도 원주시 흥업면 남원로 150",
    "addr_en": "(26403) 150 Namwon-ro, Heungeop-myeon, Wonju-si, Gangwon-do",
    "num_ap": 0,
    "realm": "gwnu.ac.kr"
  },
  {
    "lat": 37.8680051,
    "lng": 127.7483872,
    "name_ko": "강원대학교",
    "name_en": "Kangwon National University",
    "campus_ko": "강원대학교 춘천캠퍼스",
    "campus_en": "Kangwon National University Chuncheon Campus",
    "addr_ko": "강원특별자치도 (24341) 강원특별자치도 춘천시 강원대학길 1",
    "addr_en": "(24341) 1 Gangwondaehak-gil, Chuncheon-si, Gangwon-do, Gangwon-do",
    "num_ap": 1472,
    "realm": "kangwon.ac.kr"
  },
  {
    "lat": 37.2240561,
    "lng": 129.0968009,
    "name_ko": "강원대학교",
    "name_en": "Kangwon National University",
    "campus_ko": "국립강원대학교 도계캠퍼스",
    "campus_en": "Kangwon National University Dogye Campus",
    "addr_ko": "강원특별자치도 (25949) 강원특별자치도 삼척시 도계읍 황조길 346",
    "addr_en": "(25949) 346 Hwangjo-gil, Dogye-eup, Samcheok-si, Gangwon-do, Gangwon-do",
    "num_ap": 225,
    "realm": "kangwon.ac.kr"
  },
  {
    "lat": 37.4507957,
    "lng": 129.1599444,
    "name_ko": "강원대학교",
    "name_en": "Kangwon National University",
    "campus_ko": "국립강원대학교 삼척캠퍼스",
    "campus_en": "Kangwon National University Samcheok Campus",
    "addr_ko": "강원특별자치도 (25913) 강원특별자치도 삼척시 중앙로 346",
    "addr_en": "(25913) 346 Jungang-ro, Samcheok-si, Gangwon-do, Gangwon-do",
    "num_ap": 0,
    "realm": "kangwon.ac.kr"
  },
  {
    "lat": 37.5391827,
    "lng": 127.0747119,
    "name_ko": "건국대학교",
    "name_en": "KONKUK University Glocal Campus",
    "campus_ko": "건국대학교 서울캠퍼스",
    "campus_en": "Konkuk University Seoul Campus",
    "addr_ko": "서울특별시 (05029) 서울특별시 광진구 능동로 120",
    "addr_en": "(05029) 120 Neungdong-ro, Gwangjin-gu, Seoul, Seoul",
    "num_ap": 2307,
    "realm": "konkuk.ac.kr"
  },
  {
    "lat": 36.9494495,
    "lng": 127.9075402,
    "name_ko": "건국대학교",
    "name_en": "KONKUK University Glocal Campus",
    "campus_ko": "건국대학교 글로컬캠퍼스",
    "campus_en": "Konkuk University Glocal Campus",
    "addr_ko": "충청북도 (27478) 충청북도 충주시 충원대로 268",
    "addr_en": "(27478) 268 Chungwon-daero, Chungju-si, Chungcheongbuk-do, Chungcheongbuk-do",
    "num_ap": 800,
    "realm": "konkuk.ac.kr"
  },
  {
    "lat": 36.1821519,
    "lng": 127.1096874,
    "name_ko": "건양대학교",
    "name_en": "Konyang University",
    "campus_ko": "건양대학교 글로벌캠퍼스",
    "campus_en": "Konyang University Changui Convergence Campus",
    "addr_ko": "충청남도 (32992) 충청남도 논산시 대학로 121",
    "addr_en": "(32992) 121 Daehak-ro, Nonsan-si, Chungcheongnam-do, Chungcheongnam-do",
    "num_ap": 400,
    "realm": "konyang.ac.kr"
  },
  {
    "lat": 36.3067742,
    "lng": 127.3432143,
    "name_ko": "건양대학교",
    "name_en": "Konyang University",
    "campus_ko": "건양대학교 메디컬캠퍼스",
    "campus_en": "Konyang University Medical Campus",
    "addr_ko": "(35365)+N11+A12:M12+D12:M12N+A12:M12",
    "addr_en": "(35365) 158 Gwanjeodong-ro, Seo-gu, Daejeon, Daejeon",
    "num_ap": 0,
    "realm": "konyang.ac.kr"
  },
  {
    "lat": 35.1843204,
    "lng": 128.5550972,
    "name_ko": "경남대학교",
    "name_en": "Kyungnam University",
    "campus_ko": "경남대학교 월영캠퍼스",
    "campus_en": "Kyungnam University Wolyeong Campus",
    "addr_ko": "경상남도 (51767) 경상남도 창원시 마산합포구 경남대학로 7",
    "addr_en": "(51767) 7 Kyungnamdaehak-ro, Masanhappo-gu, Changwon-si, Gyeongsangnam-do, Gyeongsangnam-do",
    "num_ap": 569,
    "realm": "kyungnam.ac.kr"
  },
  {
    "lat": 35.8890975,
    "lng": 128.6143223,
    "name_ko": "경북대학교",
    "name_en": "Kyungpook National University",
    "campus_ko": "국립경북대학교 대구캠퍼스(산격)",
    "campus_en": "Kyungpook National University Daegu Campus",
    "addr_ko": "대구광역시 (41566) 대구광역시 북구 대학로 80",
    "addr_en": "(41566) 80 Daehak-ro, Buk-gu, Daegu, Daegu",
    "num_ap": 223,
    "realm": "knu.ac.kr"
  },
  {
    "lat": 34.8364215,
    "lng": 128.3991592,
    "name_ko": "경상국립대학교",
    "name_en": "Gyeongsang National University",
    "campus_ko": "경상국립대학교 통영캠퍼스",
    "campus_en": "Gyeongsang National University Tongyeong Campus",
    "addr_ko": "경상남도 (53064) 경상남도 통영시 통영해안로 2",
    "addr_en": "(53064) 2 Tongyeonghaean-ro, Tongyeong-si, Gyeongsangnam-do, Gyeongsangnam-do",
    "num_ap": 85,
    "realm": "gnu.ac.kr"
  },
  {
    "lat": 35.1570935,
    "lng": 128.0824681,
    "name_ko": "경상국립대학교",
    "name_en": "Gyeongsang National University",
    "campus_ko": "경상국립대학교 내동캠퍼스",
    "campus_en": "Gyeongsang National University Naedong Campus",
    "addr_ko": "경상남도 (52725) 경상남도 진주시 내동로139번길 8",
    "addr_en": "(52725) 8 Naedong-ro 139beon-gil, Jinju-si, Gyeongsangnam-do, Gyeongsangnam-do",
    "num_ap": 0,
    "realm": "gnu.ac.kr"
  },
  {
    "lat": 35.1567151,
    "lng": 128.0980021,
    "name_ko": "경상국립대학교",
    "name_en": "Gyeongsang National University",
    "campus_ko": "경상국립대학교 가좌캠퍼스",
    "campus_en": "Gyeongsang National University Gaejwa Campus",
    "addr_ko": "경상남도 (52828) 경상남도 진주시 진주대로 501",
    "addr_en": "(52828) 501 Jinju-daero, Jinju-si, Gyeongsangnam-do, Gyeongsangnam-do",
    "num_ap": 435,
    "realm": "gnu.ac.kr"
  },
  {
    "lat": 35.1759389,
    "lng": 128.0949157,
    "name_ko": "경상국립대학교",
    "name_en": "Gyeongsang National University",
    "campus_ko": "경상국립대학교 칠암캠퍼스 (의과대학·간호대학)",
    "campus_en": "Gyeongsang National University Chilam Campus",
    "addr_ko": "경상남도 (52727) 경상남도 진주시 진주대로816번길 15",
    "addr_en": "(52727) 15 Jinju-daero 816beon-gil, Jinju-si, Gyeongsangnam-do, Gyeongsangnam-do",
    "num_ap": 39,
    "realm": "gnu.ac.kr"
  },
  {
    "lat": 35.1792659,
    "lng": 128.0920809,
    "name_ko": "경상국립대학교",
    "name_en": "Gyeongsang National University",
    "campus_ko": "경상국립대학교 칠암캠퍼스",
    "campus_en": "Gyeongsang National University Chilam Campus",
    "addr_ko": "경상남도 (52725) 경상남도 진주시 동진로 33",
    "addr_en": "(52725) 33 Dongjin-ro, Jinju-si, Gyeongsangnam-do, Gyeongsangnam-do",
    "num_ap": 0,
    "realm": "gnu.ac.kr"
  },
  {
    "lat": 35.2408683,
    "lng": 128.6319248,
    "name_ko": "경상국립대학교",
    "name_en": "Gyeongsang National University",
    "campus_ko": "경상국립대학교 창원산학캠퍼스",
    "campus_en": "Gyeongsang National University Changwon Industry-Academia Campus",
    "addr_ko": "경상남도 (51391) 경상남도 창원시 의창구 차룡로48번길 54",
    "addr_en": "(51391) 54 Charyong-ro 48beon-gil, Uichang-gu, Changwon-si, Gyeongsangnam-do, Gyeongsangnam-do",
    "num_ap": 0,
    "realm": "gnu.ac.kr"
  },
  {
    "lat": 37.5383,
    "lng": 126.7164,
    "name_ko": "경인교육대학교",
    "name_en": "Gyeongin National University of Education",
    "campus_ko": "경인교육대학교 인천캠퍼스",
    "campus_en": "Gyeongin National University of Education Incheon Campus",
    "addr_ko": "(21044) 인천광역시 계양구 계산로 62",
    "addr_en": "(21044) 62 Gyesan-ro, Gyeyang-gu, Incheon",
    "num_ap": 0,
    "realm": "ginue.ac.kr"
  },
  {
    "lat": 37.393,
    "lng": 126.952,
    "name_ko": "경인교육대학교",
    "name_en": "Gyeongin National University of Education",
    "campus_ko": "경인교육대학교 경기캠퍼스",
    "campus_en": "Gyeongin National University of Education Gyeonggi Campus",
    "addr_ko": "(13910) 경기도 안양시 만안구 삼막로 155",
    "addr_en": "(13910) 155 Sammak-ro, Manan-gu, Anyang-si, Gyeonggi-do",
    "num_ap": 0,
    "realm": "ginue.ac.kr"
  },
  {
    "lat": 37.5367049,
    "lng": 126.7188421,
    "name_ko": "경인교육대학교",
    "name_en": "Kyungil University",
    "campus_ko": "경인교육대학교 인천캠퍼스",
    "campus_en": "Gyeongin National University of Education Incheon Campus",
    "addr_ko": "인천광역시 (21044) 인천광역시 계양구 계산로 62",
    "addr_en": "(21044) 62 Gyesan-ro, Gyeyang-gu, Incheon, Incheon",
    "num_ap": 325,
    "realm": "kiu.ac.kr"
  },
  {
    "lat": 37.4356067,
    "lng": 126.9170683,
    "name_ko": "경인교육대학교",
    "name_en": "Kyungil University",
    "campus_ko": "경인교육대학교 경기캠퍼스",
    "campus_en": "Gyeongin National University of Education Gyeonggi Campus",
    "addr_ko": "경기도 (13910) 경기도 안양시 만안구 삼막로 155",
    "addr_en": "(13910) 155 Sammak-ro, Manan-gu, Anyang-si, Gyeonggi-do, Gyeonggi-do",
    "num_ap": 352,
    "realm": "kiu.ac.kr"
  },
  {
    "lat": 37.5939495,
    "lng": 127.0548902,
    "name_ko": "경희대학교",
    "name_en": "Kyung Hee University",
    "campus_ko": "경희대학교 서울캠퍼스",
    "campus_en": "Kyung Hee University Seoul Campus",
    "addr_ko": "서울특별시 (02447) 서울특별시 동대문구 경희대로 26",
    "addr_en": "(02447) 26 Kyungheedae-ro, Dongdaemun-gu, Seoul, Seoul",
    "num_ap": 1497,
    "realm": "khu.ac.kr"
  },
  {
    "lat": 37.2398016,
    "lng": 127.0811979,
    "name_ko": "경희대학교",
    "name_en": "Kyung Hee University",
    "campus_ko": "경희대학교 국제캠퍼스",
    "campus_en": "Kyung Hee University Global Campus",
    "addr_ko": "경기도 (17104) 경기도 용인시 기흥구 덕영대로 1732",
    "addr_en": "(17104) 1732 Deogyeong-daero, Giheung-gu, Yongin-si, Gyeonggi-do, Gyeonggi-do",
    "num_ap": 1084,
    "realm": "khu.ac.kr"
  },
  {
    "lat": 35.8545309,
    "lng": 128.4890149,
    "name_ko": "계명대학교",
    "name_en": "Keimyung University",
    "campus_ko": "계명대학교 성서캠퍼스",
    "campus_en": "Keimyung University Seongseo Campus",
    "addr_ko": "대구광역시 (42601) 대구광역시 달서구 달구벌대로 1095",
    "addr_en": "(42601) 1095 Dalgubeol-daero, Dalseo-gu, Daegu, Daegu",
    "num_ap": 0,
    "realm": "kmu.ac.kr"
  },
  {
    "lat": 35.8563266,
    "lng": 128.5798284,
    "name_ko": "계명대학교",
    "name_en": "Keimyung University",
    "campus_ko": "계명대학교 대명캠퍼스",
    "campus_en": "Keimyung University Daemyung Campus",
    "addr_ko": "대구광역시 (42403) 대구광역시 남구 명덕로 104",
    "addr_en": "(42403) 104 Myeongdeok-ro, Nam-gu, Daegu, Daegu",
    "num_ap": 0,
    "realm": "kmu.ac.kr"
  },
  {
    "lat": 35.8590061,
    "lng": 128.4910262,
    "name_ko": "계명문화대학교",
    "name_en": "Keimyung College University",
    "campus_ko": "계명문화대학교",
    "campus_en": "Keimyung College University",
    "addr_ko": "대구광역시 (42601) 대구광역시 달서구 달서대로 675",
    "addr_en": "(42601) 675 Dalseo-daero, Dalseo-gu, Daegu, Daegu",
    "num_ap": 0,
    "realm": "kmcu.ac.kr"
  },
  {
    "lat": 37.5926,
    "lng": 127.0534,
    "name_ko": "고등과학원",
    "name_en": "KIAS, Korea Institute for Advanced Study",
    "campus_ko": "고등과학원",
    "campus_en": "Korea Institute for Advanced Study",
    "addr_ko": "(02455) 서울특별시 동대문구 회기로 85",
    "addr_en": "(02455) 85 Hoegi-ro, Dongdaemun-gu, Seoul",
    "num_ap": 0,
    "realm": "kias.re.kr"
  },
  {
    "lat": 37.5887034,
    "lng": 127.0316981,
    "name_ko": "고려대학교",
    "name_en": "Korea University",
    "campus_ko": "고려대학교 서울캠퍼스(안암)",
    "campus_en": "Korea University Seoul Campus",
    "addr_ko": "서울특별시 (02841) 서울특별시 성북구 안암로 145",
    "addr_en": "(02841) 145 Anam-ro, Seongbuk-gu, Seoul, Seoul",
    "num_ap": 3533,
    "realm": "korea.ac.kr"
  },
  {
    "lat": 36.6108968,
    "lng": 127.2864676,
    "name_ko": "고려대학교",
    "name_en": "Korea University",
    "campus_ko": "고려대학교 세종캠퍼스",
    "campus_en": "Korea University Sejong Campus",
    "addr_ko": "세종특별자치시 (30019) 세종특별자치시 세종로 2511",
    "addr_en": "(30019) 2511 Sejong-ro, Sejong, Sejong",
    "num_ap": 686,
    "realm": "korea.ac.kr"
  },
  {
    "lat": 36.4452027,
    "lng": 127.1196553,
    "name_ko": "공주교육대학교",
    "name_en": "Gongju National University of Education",
    "campus_ko": "국립공주교육대학교",
    "campus_en": "Gongju National University of Education",
    "addr_ko": "충청남도 (32553) 충청남도 공주시 웅진로 27",
    "addr_en": "(32553) 27 Ungjin-ro, Gongju-si, Chungcheongnam-do, Chungcheongnam-do",
    "num_ap": 324,
    "realm": "gjue.ac.kr"
  },
  {
    "lat": 36.3849081,
    "lng": 127.367623,
    "name_ko": "과학기술연합대학원대학교",
    "name_en": "University of Science and Technology",
    "campus_ko": "과학기술연합대학원대학교",
    "campus_en": "University of Science and Technology",
    "addr_ko": "대전광역시 (34113) 대전광역시 유성구 가정로 217",
    "addr_en": "(34113) 217 Gajeong-ro, Yuseong-gu, Daejeon, Daejeon",
    "num_ap": 0,
    "realm": "ust.ac.kr"
  },
  {
    "lat": 35.1647147,
    "lng": 126.9256988,
    "name_ko": "광주교육대학교",
    "name_en": "Gwangju National University of Education",
    "campus_ko": "국립광주교육대학교",
    "campus_en": "Gwangju National University of Education",
    "addr_ko": "광주광역시 (61204) 광주광역시 북구 필문대로 55",
    "addr_en": "(61204) 55 Pilmun-daero, Buk-gu, Gwangju, Gwangju",
    "num_ap": 0,
    "realm": "gnue.ac.kr"
  },
  {
    "lat": 35.1059025,
    "lng": 126.8961681,
    "name_ko": "광주대학교",
    "name_en": "Gwangju University",
    "campus_ko": "광주대학교",
    "campus_en": "Gwangju University",
    "addr_ko": "광주광역시 (61743) 광주광역시 남구 효덕로 277",
    "addr_en": "(61743) 277 Hyodeok-ro, Nam-gu, Gwangju, Gwangju",
    "num_ap": 45,
    "realm": "gwangju.ac.kr"
  },
  {
    "lat": 35.1919706,
    "lng": 126.8446634,
    "name_ko": "광주보건대학교",
    "name_en": "Gwangju Health University",
    "campus_ko": "광주보건대학교",
    "campus_en": "Gwangju Health University",
    "addr_ko": "광주광역시 (62287) 광주광역시 광산구 북문대로419번길 73",
    "addr_en": "(62287) 73 Bukmun-daero 419beon-gil, Gwangsan-gu, Gwangju, Gwangju",
    "num_ap": 1,
    "realm": "ghu.ac.kr"
  },
  {
    "lat": 35.1631675,
    "lng": 126.79641,
    "name_ko": "광주여자대학교",
    "name_en": "Kwangju Women's University",
    "campus_ko": "광주여자대학교",
    "campus_en": "Kwangju Women's University",
    "addr_ko": "광주광역시 (62396) 광주광역시 광산구 여대길 201",
    "addr_en": "(62396) 201 Yeodae-gil, Gwangsan-gu, Gwangju, Gwangju",
    "num_ap": 0,
    "realm": "kwu.ac.kr"
  },
  {
    "lat": 36.4016,
    "lng": 127.4008,
    "name_ko": "국가수리과학연구소",
    "name_en": "NIMS, National Institute for Mathematical Sciences",
    "campus_ko": "국가수리과학연구소",
    "campus_en": "National Institute for Mathematical Sciences",
    "addr_ko": "(34047) 대전광역시 유성구 유성대로1689번길 70",
    "addr_en": "(34047) 70 Yuseong-daero 1689beon-gil, Yuseong-gu, Daejeon",
    "num_ap": 0,
    "realm": "nims.re.kr"
  },
  {
    "lat": 36.4689627,
    "lng": 127.1408071,
    "name_ko": "국립공주대학교",
    "name_en": "Kongju National University",
    "campus_ko": "국립공주대학교 신관(공주)캠퍼스",
    "campus_en": "Kongju National University Singwan (Gongju) Campus",
    "addr_ko": "충청남도 (32588) 충청남도 공주시 공주대학로 56",
    "addr_en": "(32588) 56 Gongjudaehak-ro, Gongju-si, Chungcheongnam-do, Chungcheongnam-do",
    "num_ap": 0,
    "realm": "kongju.ac.kr"
  },
  {
    "lat": 36.8508401,
    "lng": 127.1510205,
    "name_ko": "국립공주대학교",
    "name_en": "Kongju National University",
    "campus_ko": "국립공주대학교 천안캠퍼스",
    "campus_en": "Kongju National University Cheonan Campus",
    "addr_ko": "충청남도 (31080) 충청남도 천안시 서북구 천안대로 1223-24",
    "addr_en": "(31080) 1223-24 Cheonan-daero, Seobuk-gu, Cheonan-si, Chungcheongnam-do, Chungcheongnam-do",
    "num_ap": 0,
    "realm": "kongju.ac.kr"
  },
  {
    "lat": 36.6697682,
    "lng": 126.8594774,
    "name_ko": "국립공주대학교",
    "name_en": "Kongju National University",
    "campus_ko": "국립공주대학교 예산캠퍼스",
    "campus_en": "Kongju National University Yesan Campus",
    "addr_ko": "충청남도 (32439) 충청남도 예산군 예산읍 대학로 54",
    "addr_en": "(32439) 54 Daehak-ro, Yesan-eup, Yesan-gun, Chungcheongnam-do, Chungcheongnam-do",
    "num_ap": 0,
    "realm": "kongju.ac.kr"
  },
  {
    "lat": 36.9688463,
    "lng": 127.8727696,
    "name_ko": "국립한국교통대학교",
    "name_en": "Korea National University of Transportation",
    "campus_ko": "국립한국교통대학교 충주캠퍼스",
    "campus_en": "Korea National University of Transportation Chungju Campus",
    "addr_ko": "충청북도 (27469) 충청북도 충주시 대소원면 대학로 50",
    "addr_en": "(27469) 50 Daehak-ro, Daesowon-myeon, Chungju-si, Chungcheongbuk-do, Chungcheongbuk-do",
    "num_ap": 0,
    "realm": "ut.ac.kr"
  },
  {
    "lat": 36.7685562,
    "lng": 127.624046,
    "name_ko": "국립한국교통대학교",
    "name_en": "Korea National University of Transportation",
    "campus_ko": "국립한국교통대학교 증평캠퍼스",
    "campus_en": "Korea National University of Transportation Jeungpyeong Campus",
    "addr_ko": "충청북도 (27909) 충청북도 증평군 증평읍 대학로 61",
    "addr_en": "(27909) 61 Daehak-ro, Jeungpyeong-eup, Jeungpyeong-gun, Chungcheongbuk-do, Chungcheongbuk-do",
    "num_ap": 0,
    "realm": "ut.ac.kr"
  },
  {
    "lat": 37.3158108,
    "lng": 126.9545634,
    "name_ko": "국립한국교통대학교",
    "name_en": "Korea National University of Transportation",
    "campus_ko": "국립한국교통대학교 의왕캠퍼스",
    "campus_en": "Korea National University of Transportation Uiwang Campus",
    "addr_ko": "경기도 (16106) 경기도 의왕시 철도박물관로 157",
    "addr_en": "(16106) 157 Cheoldobangmulgwan-ro, Uiwang-si, Gyeonggi-do, Gyeonggi-do",
    "num_ap": 0,
    "realm": "ut.ac.kr"
  },
  {
    "lat": 36.428349,
    "lng": 127.3957887,
    "name_ko": "국립한밭대학교",
    "name_en": "Hanbat National University",
    "campus_ko": "국립한밭대학교 대덕산학융합캠퍼스",
    "campus_en": "Hanbat National University Daedeok Industry-Academia Convergence Campus",
    "addr_ko": "대전광역시 (34014) 대전광역시 유성구 테크노1로 75",
    "addr_en": "(34014) 75 Techno 1-ro, Yuseong-gu, Daejeon, Daejeon",
    "num_ap": 0,
    "realm": "hanbat.ac.kr"
  },
  {
    "lat": 36.3487944,
    "lng": 127.3005622,
    "name_ko": "국립한밭대학교",
    "name_en": "Hanbat National University",
    "campus_ko": "국립한밭대학교 유성덕명캠퍼스",
    "campus_en": "Hanbat National University Yuseong Deokmyeong Campus",
    "addr_ko": "대전광역시 (34158) 대전광역시 유성구 동서대로 125",
    "addr_en": "(34158) 125 Dongseo-daero, Yuseong-gu, Daejeon, Daejeon",
    "num_ap": 1468,
    "realm": "hanbat.ac.kr"
  },
  {
    "lat": 37.6102882,
    "lng": 126.9985231,
    "name_ko": "국민대학교",
    "name_en": "Kookmin University",
    "campus_ko": "국민대학교 북악캠퍼스",
    "campus_en": "Kookmin University Bukak Campus",
    "addr_ko": "서울특별시 (02707) 서울특별시 성북구 정릉로 77",
    "addr_en": "(02707) 77 Jeongneung-ro, Seongbuk-gu, Seoul, Seoul",
    "num_ap": 1156,
    "realm": "kookmin.ac.kr"
  },
  {
    "lat": 35.9503465,
    "lng": 126.6803558,
    "name_ko": "군산대학교",
    "name_en": "Kunsan National University",
    "campus_ko": "국립군산대학교 미룡캠퍼스",
    "campus_en": "Kunsan National University Miryong Campus",
    "addr_ko": "전북특별자치도 (54150) 전북특별자치도 군산시 대학로 558",
    "addr_en": "(54150) 558 Daehak-ro, Gunsan-si, Jeonbuk-do, Jeonbuk-do",
    "num_ap": 1352,
    "realm": "kunsan.ac.kr"
  },
  {
    "lat": 35.961698,
    "lng": 126.5596494,
    "name_ko": "군산대학교",
    "name_en": "Kunsan National University",
    "campus_ko": "국립군산대학교 새만금캠퍼스",
    "campus_en": "Kunsan National University Saemangeum Campus",
    "addr_ko": "전북특별자치도 (54150) 전북특별자치도 군산시 대학로 558",
    "addr_en": "(54150) 558 Daehak-ro, Gunsan-si, Jeonbuk-do, Jeonbuk-do",
    "num_ap": 48,
    "realm": "kunsan.ac.kr"
  },
  {
    "lat": 36.1456313,
    "lng": 128.3878839,
    "name_ko": "금오공과대학교",
    "name_en": "Kumoh National Institute of Technology",
    "campus_ko": "국립금오공과대학교 양호캠퍼스",
    "campus_en": "Kumoh National Institute of Technology Yangho Campus",
    "addr_ko": "경상북도 (39177) 경상북도 구미시 대학로 61",
    "addr_en": "(39177) 61 Daehak-ro, Gumi-si, Gyeongsangbuk-do, Gyeongsangbuk-do",
    "num_ap": 315,
    "realm": "kumoh.ac.kr"
  },
  {
    "lat": 36.1192093,
    "lng": 128.3656895,
    "name_ko": "금오공과대학교",
    "name_en": "Kumoh National Institute of Technology",
    "campus_ko": "국립금오공과대학교 신평동캠퍼스",
    "campus_en": "Kumoh National Institute of Technology, Sinpyeong Campus",
    "addr_ko": "경상북도 (39177) 경상북도 구미시 대학로 61",
    "addr_en": "(39177) 61 Daehak-ro, Gumi-si, Gyeongsangbuk-do, Gyeongsangbuk-do",
    "num_ap": 0,
    "realm": "kumoh.ac.kr"
  },
  {
    "lat": 36.401836,
    "lng": 127.400124,
    "name_ko": "기초과학연구원",
    "name_en": "Korea Institute for Basic Science",
    "campus_ko": "본원",
    "campus_en": "IBS, Institute for Basic Science",
    "addr_ko": "",
    "addr_en": "",
    "num_ap": 0,
    "realm": "ibs.re.kr"
  },
  {
    "lat": 36.7983486,
    "lng": 127.1194762,
    "name_ko": "나사렛대학교",
    "name_en": "Korea Nazarene University",
    "campus_ko": "나사렛대학교",
    "campus_en": "Korea Nazarene University",
    "addr_ko": "충청남도 (31172) 충청남도 천안시 서북구 월봉로 48",
    "addr_en": "(31172) 48 Wolbong-ro, Seobuk-gu, Cheonan-si, Chungcheongnam-do, Chungcheongnam-do",
    "num_ap": 486,
    "realm": "kornu.ac.kr"
  },
  {
    "lat": 35.2070609,
    "lng": 126.8422582,
    "name_ko": "남부대학교",
    "name_en": "Nambu University",
    "campus_ko": "남부대학교",
    "campus_en": "Nambu University",
    "addr_ko": "광주광역시 (62271) 광주광역시 광산구 첨단중앙로 23",
    "addr_en": "(62271) 23 Cheomdanjungang-ro, Gwangsan-gu, Gwangju, Gwangju",
    "num_ap": 111,
    "realm": "nambu.ac.kr"
  },
  {
    "lat": 37.3211939,
    "lng": 127.1325359,
    "name_ko": "단국대학교",
    "name_en": "Dankook University",
    "campus_ko": "단국대학교 죽전캠퍼스",
    "campus_en": "Dankook University, Jukjeon Campus",
    "addr_ko": "경기도 (16890) 경기도 용인시 수지구 죽전로 152",
    "addr_en": "(16890) 152 Jukjeon-ro, Suji-gu, Yongin-si, Gyeonggi-do, Gyeonggi-do",
    "num_ap": 2812,
    "realm": "dankook.ac.kr"
  },
  {
    "lat": 36.8359525,
    "lng": 127.1652134,
    "name_ko": "단국대학교",
    "name_en": "Dankook University",
    "campus_ko": "단국대학교 천안캠퍼스",
    "campus_en": "Dankook University, Cheonan Campus",
    "addr_ko": "충청남도 (31116) 충청남도 천안시 동남구 단대로 119",
    "addr_en": "(31116) 119 Dandae-ro, Dongnam-gu, Cheonan-si, Chungcheongnam-do, Chungcheongnam-do",
    "num_ap": 0,
    "realm": "dankook.ac.kr"
  },
  {
    "lat": 35.9089671,
    "lng": 128.807422,
    "name_ko": "대구가톨릭대학교",
    "name_en": "Daegu Catholic University",
    "campus_ko": "대구가톨릭대학교 효성캠퍼스",
    "campus_en": "Daegu Catholic University, Hyoseong Campus",
    "addr_ko": "경상북도 (38430) 경상북도 경산시 하양읍 하양로 13-13",
    "addr_en": "(38430) 13-13 Hayang-ro, Hayang-eup, Gyeongsan-si, Gyeongsangbuk-do, Gyeongsangbuk-do",
    "num_ap": 0,
    "realm": "cu.ac.kr"
  },
  {
    "lat": 35.7056378,
    "lng": 128.4550107,
    "name_ko": "대구경북과학기술원",
    "name_en": "Daegu Gyeongbuk Institute of Science and Technology",
    "campus_ko": "대구경북과학기술원(DGIST)",
    "campus_en": "Daegu Gyeongbuk Institute of Science and Technology",
    "addr_ko": "대구광역시 (42988) 대구광역시 달성군 현풍읍 테크노중앙대로 333",
    "addr_en": "(42988) 333 Techno jungang-daero, Hyeonpung-eup, Dalseong-gun, Daegu, Daegu",
    "num_ap": 759,
    "realm": "dgist.ac.kr"
  },
  {
    "lat": 35.8514318,
    "lng": 128.5877407,
    "name_ko": "대구교육대학교",
    "name_en": "Daegu National University of Education",
    "campus_ko": "국립대구교육대학교",
    "campus_en": "Daegu National University of Education",
    "addr_ko": "대구광역시 (42411) 대구광역시 남구 중앙대로 219",
    "addr_en": "(42411) 219 Jungang-daero, Nam-gu, Daegu, Daegu",
    "num_ap": 0,
    "realm": "dnue.ac.kr"
  },
  {
    "lat": 35.9045377,
    "lng": 128.8428145,
    "name_ko": "대구대학교",
    "name_en": "Daegu University",
    "campus_ko": "대구대학교 경산캠퍼스",
    "campus_en": "Daegu University, Gyeongsan Campus",
    "addr_ko": "경상북도 (38453) 경상북도 경산시 진량읍 대구대로 201",
    "addr_en": "(38453) 201 Daegudae-ro, Jillyang-eup, Gyeongsan-si, Gyeongsangbuk-do, Gyeongsangbuk-do",
    "num_ap": 1513,
    "realm": "daegu.ac.kr"
  },
  {
    "lat": 36.3366962,
    "lng": 127.4590019,
    "name_ko": "대전대학교",
    "name_en": "Daejeon University",
    "campus_ko": "대전대학교",
    "campus_en": "Daejeon University",
    "addr_ko": "대전광역시 (34520) 대전광역시 동구 대학로 62",
    "addr_en": "(34520) 62 Daehak-ro, Dong-gu, Daejeon, Daejeon",
    "num_ap": 1329,
    "realm": "dju.ac.kr"
  },
  {
    "lat": 36.3743,
    "lng": 127.3876,
    "name_ko": "대전컨벤션센터",
    "name_en": "Daejeon Convention Center",
    "campus_ko": "대전컨벤션센터",
    "campus_en": "Daejeon Convention Center",
    "addr_ko": "(34125) 대전광역시 유성구 엑스포로 107",
    "addr_en": "(34125) 107 Expo-ro, Yuseong-gu, Daejeon",
    "num_ap": 0,
    "realm": "dcckorea.or.kr"
  },
  {
    "lat": 37.8738099,
    "lng": 127.1575536,
    "name_ko": "대진대학교",
    "name_en": "Daejin University",
    "campus_ko": "대진대학교",
    "campus_en": "Daejin University",
    "addr_ko": "경기도 (11159) 경기도 포천시 호국로 1007",
    "addr_en": "(11159) 1007 Hoguk-ro, Pocheon-si, Gyeonggi-do, Gyeonggi-do",
    "num_ap": 736,
    "realm": "daejin.ac.kr"
  },
  {
    "lat": 37.5581784,
    "lng": 126.9980035,
    "name_ko": "동국대학교",
    "name_en": "Dongguk University",
    "campus_ko": "동국대학교 서울캠퍼스",
    "campus_en": "Dongguk University, Seoul Campus",
    "addr_ko": "서울특별시 (04620) 서울특별시 중구 필동로1길 30",
    "addr_en": "(04620) 30 Pildong-ro 1-gil, Jung-gu, Seoul, Seoul",
    "num_ap": 1000,
    "realm": "dongguk.ac.kr"
  },
  {
    "lat": 35.0496249,
    "lng": 126.7179925,
    "name_ko": "동신대학교",
    "name_en": "Dongshin University",
    "campus_ko": "동신대학교",
    "campus_en": "Dongshin University",
    "addr_ko": "전라남도 (58245) 전라남도 나주시 건재로 185",
    "addr_en": "(58245) 185 Geonjae-ro, Naju-si, Jeollanam-do, Jeollanam-do",
    "num_ap": 739,
    "realm": "dsu.ac.kr"
  },
  {
    "lat": 35.1200013,
    "lng": 129.0187421,
    "name_ko": "동아대학교",
    "name_en": "Dong-A University",
    "campus_ko": "동아대학교 구덕캠퍼스",
    "campus_en": "Dong-A University, Gudeok Campus",
    "addr_ko": "부산광역시 (49201) 부산광역시 서구 대신공원로 32",
    "addr_en": "(49201) 32, Daesingongwon-ro, Seo-gu, Busan, Busan",
    "num_ap": 35,
    "realm": "donga.ac.kr"
  },
  {
    "lat": 35.1188089,
    "lng": 128.9680846,
    "name_ko": "동아대학교",
    "name_en": "Dong-A University",
    "campus_ko": "동아대학교 승학캠퍼스",
    "campus_en": "Dong-A University, Seunghak Campus",
    "addr_ko": "부산광역시 (49315) 부산광역시 사하구 낙동대로550번길 37",
    "addr_en": "(49315) 37 Nakdong-daero 550beon-gil, Saha-gu, Busan, Busan",
    "num_ap": 403,
    "realm": "donga.ac.kr"
  },
  {
    "lat": 35.1037401,
    "lng": 129.0194155,
    "name_ko": "동아대학교",
    "name_en": "Dong-A University",
    "campus_ko": "동아대학교 부민캠퍼스",
    "campus_en": "Dong-A University, Bumin Campus",
    "addr_ko": "부산광역시 (49236) 부산광역시 서구 구덕로 225",
    "addr_en": "(49236) 225 Gudeok-ro, Seo-gu, Busan, Busan",
    "num_ap": 186,
    "realm": "donga.ac.kr"
  },
  {
    "lat": 35.1437214,
    "lng": 129.0352536,
    "name_ko": "동의대학교",
    "name_en": "Dong-Eui University",
    "campus_ko": "동의대학교 가야캠퍼스",
    "campus_en": "Dong-Eui University, Gaya Campus",
    "addr_ko": "부산광역시 (47340) 부산광역시 부산진구 엄광로 176",
    "addr_en": "(47340) 176 Eomgwang-ro, Busanjin-gu, Busan, Busan",
    "num_ap": 499,
    "realm": "deu.ac.kr"
  },
  {
    "lat": 35.1693164,
    "lng": 129.0773841,
    "name_ko": "동의대학교",
    "name_en": "Dong-Eui University",
    "campus_ko": "동의대학교 양정캠퍼스",
    "campus_en": "Dong-Eui University, Yangjeong Campus",
    "addr_ko": "부산광역시 (47227) 부산광역시 부산진구 양지로 54",
    "addr_en": "(47227) 54 Yangji-ro, Busanjin-gu, Busan, Busan",
    "num_ap": 32,
    "realm": "deu.ac.kr"
  },
  {
    "lat": 34.9103089,
    "lng": 126.4402121,
    "name_ko": "목포대학교",
    "name_en": "Mokpo National University",
    "campus_ko": "국립목포대학교",
    "campus_en": "Mokpo National University",
    "addr_ko": "전라남도 (58554) 전라남도 무안군 청계면 영산로 1666",
    "addr_en": "(58554) 1666 Yeongsan-ro, Cheonggye-myeon, Muan-gun, Jeollanam-do, Jeollanam-do",
    "num_ap": 1640,
    "realm": "mokpo.ac.kr"
  },
  {
    "lat": 34.7909665,
    "lng": 126.3627663,
    "name_ko": "목포해양대학교",
    "name_en": "Mokpo National Maritime University",
    "campus_ko": "국립목포해양대학교",
    "campus_en": "Mokpo National Maritime University",
    "addr_ko": "전라남도 (58628) 전라남도 목포시 해양대학로 91",
    "addr_en": "(58628) 91 Haeyangdaehak-ro, Mokpo-si, Jeollanam-do, Jeollanam-do",
    "num_ap": 1125,
    "realm": "mmu.ac.kr"
  },
  {
    "lat": 36.8413484,
    "lng": 127.1873755,
    "name_ko": "백석대학교",
    "name_en": "Baekseok University",
    "campus_ko": "백석대학교",
    "campus_en": "Baekseok University",
    "addr_ko": "충청남도 (31065) 충청남도 천안시 동남구 문암로 76",
    "addr_en": "(31065) 76 Munam-ro, Dongnam-gu, Cheonan-si, Chungcheongnam-do, Chungcheongnam-do",
    "num_ap": 0,
    "realm": "bu.ac.kr"
  },
  {
    "lat": 36.838569,
    "lng": 127.1830368,
    "name_ko": "백석대학교",
    "name_en": "Baekseok University",
    "campus_ko": "백석문화대학교",
    "campus_en": "Baekseok Culture University",
    "addr_ko": "충청남도 (31001) 충청남도 천안시 동남구 문암로 58",
    "addr_en": "(31001) 58 Munam-ro, Dongnam-gu, Cheonan-si, Chungcheongnam-do, Chungcheongnam-do",
    "num_ap": 0,
    "realm": "bu.ac.kr"
  },
  {
    "lat": 35.1347078,
    "lng": 129.1078781,
    "name_ko": "부경대학교",
    "name_en": "Pukyong National University",
    "campus_ko": "국립부경대학교 대연캠퍼스",
    "campus_en": "Pukyong National University, Daeyeon Campus",
    "addr_ko": "부산광역시 (48513) 부산광역시 남구 용소로 45",
    "addr_en": "(48513) 45 Yongso-ro, Nam-gu, Busan, Busan",
    "num_ap": 742,
    "realm": "pknu.ac.kr"
  },
  {
    "lat": 35.1159984,
    "lng": 129.0894358,
    "name_ko": "부경대학교",
    "name_en": "Pukyong National University",
    "campus_ko": "국립부경대학교 용당캠퍼스",
    "campus_en": "Pukyong National University, Yongdang Campus",
    "addr_ko": "부산광역시 (48547) 부산광역시 남구 신선로 365",
    "addr_en": "(48547) 365 Sinseon-ro, Nam-gu, Busan, Busan",
    "num_ap": 161,
    "realm": "pknu.ac.kr"
  },
  {
    "lat": 35.1949371,
    "lng": 129.0772329,
    "name_ko": "부산교육대학교",
    "name_en": "Busan National University of Education",
    "campus_ko": "국립부산교육대학교",
    "campus_en": "Busan National University of Education",
    "addr_ko": "부산광역시 (47503) 부산광역시 연제구 교대로 24",
    "addr_en": "(47503) 24 Gyodae-ro, Yeonje-gu, Busan, Busan",
    "num_ap": 278,
    "realm": "bnue.ac.kr"
  },
  {
    "lat": 35.3111639,
    "lng": 128.9883383,
    "name_ko": "부산대학교",
    "name_en": "Pusan National University",
    "campus_ko": "국립부산대학교 양산캠퍼스",
    "campus_en": "Pusan National University, Yangsan Campus",
    "addr_ko": "경상남도 (50612) 경상남도 양산시 부산대학로 49",
    "addr_en": "(50612) 49 Busandaehak-ro, Yangsan-si, Gyeongsangnam-do, Gyeongsangnam-do",
    "num_ap": 352,
    "realm": "pusan.ac.kr"
  },
  {
    "lat": 35.2314426,
    "lng": 129.0843625,
    "name_ko": "부산대학교",
    "name_en": "Pusan National University",
    "campus_ko": "국립부산대학교 부산캠퍼스",
    "campus_en": "Pusan National University, Busan Campus",
    "addr_ko": "부산광역시 (46241) 부산광역시 금정구 부산대학로63번길 2",
    "addr_en": "(46241) 2 Busandaehak-ro 63beon-gil, Geumjeong-gu, Busan, Busan",
    "num_ap": 1867,
    "realm": "pusan.ac.kr"
  },
  {
    "lat": 35.4540299,
    "lng": 128.8084336,
    "name_ko": "부산대학교",
    "name_en": "Pusan National University",
    "campus_ko": "국립부산대학교 밀양캠퍼스",
    "campus_en": "Pusan National University, Miryang Campus",
    "addr_ko": "경상남도 (50463) 경상남도 밀양시 삼랑진읍 삼랑진로 1268-50",
    "addr_en": "(50463) 1268-50 Samnangjin-ro, Samnangjin-eup, Miryang-si, Gyeongsangnam-do, Gyeongsangnam-do",
    "num_ap": 244,
    "realm": "pusan.ac.kr"
  },
  {
    "lat": 37.6041089,
    "lng": 126.9551595,
    "name_ko": "상명대학교",
    "name_en": "Sangmyung University",
    "campus_ko": "상명대학교 서울캠퍼스",
    "campus_en": "Sangmyung University, Seoul Campus",
    "addr_ko": "서울특별시 (03016) 서울특별시 종로구 홍지문2길 20",
    "addr_en": "(03016) 20 Hongjimun 2-gil, Jongno-gu, Seoul, Seoul",
    "num_ap": 0,
    "realm": "smu.ac.kr"
  },
  {
    "lat": 37.5514684,
    "lng": 126.943027,
    "name_ko": "서강대학교",
    "name_en": "Sogang University",
    "campus_ko": "서강대학교",
    "campus_en": "Sogang University",
    "addr_ko": "서울특별시 (04107) 서울특별시 마포구 백범로 35",
    "addr_en": "(04107) 35 Baekbeom-ro, Mapo-gu, Seoul, Seoul",
    "num_ap": 1050,
    "realm": "sogang.ac.kr"
  },
  {
    "lat": 37.6328059,
    "lng": 127.0768337,
    "name_ko": "서울과학기술대학교",
    "name_en": "Seoul National University of Science and Technology",
    "campus_ko": "국립서울과학기술대학교",
    "campus_en": "Seoul National University of Science and Technology",
    "addr_ko": "서울특별시 (01811) 서울특별시 노원구 공릉로 232",
    "addr_en": "(01811) 232 Gongneung-ro, Nowon-gu, Seoul, Seoul",
    "num_ap": 1201,
    "realm": "seoultech.ac.kr"
  },
  {
    "lat": 37.4680385,
    "lng": 126.9592961,
    "name_ko": "서울대학교",
    "name_en": "Seoul National University",
    "campus_ko": "서울대학교 관악캠퍼스",
    "campus_en": "Seoul National University, Gwanak Campus",
    "addr_ko": "서울특별시 (08826) 서울특별시 관악구 관악로 1",
    "addr_en": "(08826) 1 Gwanak-ro, Gwanak-gu, Seoul, Seoul",
    "num_ap": 717,
    "realm": "snu.ac.kr"
  },
  {
    "lat": 37.5825765,
    "lng": 127.0599901,
    "name_ko": "서울시립대학교",
    "name_en": "University of Seoul",
    "campus_ko": "서울시립대학교",
    "campus_en": "University of Seoul",
    "addr_ko": "서울특별시 (02504) 서울특별시 동대문구 서울시립대로 163",
    "addr_en": "(02504) 163 Seoulsiripdae-ro, Dongdaemun-gu, Seoul, Seoul",
    "num_ap": 1164,
    "realm": "uos.ac.kr"
  },
  {
    "lat": 36.6259814,
    "lng": 127.4821185,
    "name_ko": "서원대학교",
    "name_en": "Seowon University",
    "campus_ko": "서원대학교",
    "campus_en": "Seowon University",
    "addr_ko": "충청북도 (28674) 충청북도 청주시 서원구 무심서로 377-3",
    "addr_en": "(28674) 377-3 Musimseo-ro, Seowon-gu, Cheongju-si, Chungcheongbuk-do, Chungcheongbuk-do",
    "num_ap": 0,
    "realm": "seowon.ac.kr"
  },
  {
    "lat": 37.585831,
    "lng": 127.0976268,
    "name_ko": "서일대학교",
    "name_en": "Seoil University",
    "campus_ko": "서일대학교",
    "campus_en": "Seoil University",
    "addr_ko": "서울특별시 (02192) 서울특별시 중랑구 용마산로90길 28",
    "addr_en": "(02192) 28 Yongmasan-ro 90-gil, Jungnang-gu, Seoul, Seoul",
    "num_ap": 0,
    "realm": "seoil.ac.kr"
  },
  {
    "lat": 37.3798649,
    "lng": 126.9288086,
    "name_ko": "성결대학교",
    "name_en": "Sungkyul University",
    "campus_ko": "성결대학교",
    "campus_en": "Sungkyul University",
    "addr_ko": "경기도 (14097) 경기도 안양시 만안구 성결대학로 53",
    "addr_en": "(14097) 53 Sungkyuldaehak-ro, Manan-gu, Anyang-si, Gyeonggi-do, Gyeonggi-do",
    "num_ap": 236,
    "realm": "sungkyul.ac.kr"
  },
  {
    "lat": 37.588227,
    "lng": 126.993606,
    "name_ko": "성균관대학교",
    "name_en": "Sungkyunkwan University",
    "campus_ko": "성균관대학교 인문사회과학캠퍼스",
    "campus_en": "Sungkyunkwan University, Humanities and Social Sciences Campus",
    "addr_ko": "서울특별시 (03063) 서울특별시 종로구 성균관로 25-2",
    "addr_en": "(03063) 25-2 Sungkyunkwan-ro, Jongno-gu, Seoul, Seoul",
    "num_ap": 1053,
    "realm": "skku.ac.kr"
  },
  {
    "lat": 37.2950354,
    "lng": 126.9748767,
    "name_ko": "성균관대학교",
    "name_en": "Sungkyunkwan University",
    "campus_ko": "성균관대학교 자연과학캠퍼스",
    "campus_en": "Sungkyunkwan University, Natural Sciences Campus",
    "addr_ko": "경기도 (16419) 경기도 수원시 장안구 서부로 2066",
    "addr_en": "(16419) 2066 Seobu-ro, Jangan-gu, Suwon-si, Gyeonggi-do, Gyeonggi-do",
    "num_ap": 1473,
    "realm": "skku.ac.kr"
  },
  {
    "lat": 37.5916525,
    "lng": 127.0221456,
    "name_ko": "성신여자대학교",
    "name_en": "Sungshin Women's University",
    "campus_ko": "성신여자대학교 수정캠퍼스",
    "campus_en": "Sungshin Women's University, Sujeong Campus",
    "addr_ko": "서울특별시 (02844) 서울특별시 성북구 보문로34다길 2",
    "addr_en": "(02844) 2 Bomun-ro 34da-gil, Seongbuk-gu, Seoul, Seoul",
    "num_ap": 494,
    "realm": "sungshin.ac.kr"
  },
  {
    "lat": 37.632038,
    "lng": 127.0271242,
    "name_ko": "성신여자대학교",
    "name_en": "Sungshin Women's University",
    "campus_ko": "성신여자대학교 운정그린캠퍼스",
    "campus_en": "Sungshin Women's University, Unjeong Green Campus",
    "addr_ko": "서울특별시 (01133) 서울특별시 강북구 삼양로 144길 55",
    "addr_en": "(01133) 55 Samyang-ro 144-gil, Gangbuk-gu, Seoul, Seoul",
    "num_ap": 217,
    "realm": "sungshin.ac.kr"
  },
  {
    "lat": 37.5507981,
    "lng": 127.0745756,
    "name_ko": "세종대학교",
    "name_en": "Sejong University",
    "campus_ko": "세종대학교",
    "campus_en": "Sejong University",
    "addr_ko": "서울특별시 (05006) 서울특별시 광진구 능동로 209",
    "addr_en": "(05006) 209 Neungdong-ro, Gwangjin-gu, Seoul, Seoul",
    "num_ap": 0,
    "realm": "sejong.ac.kr"
  },
  {
    "lat": 34.7453782,
    "lng": 126.4832658,
    "name_ko": "세한대학교",
    "name_en": "Sehan University",
    "campus_ko": "세한대학교 영암캠퍼스",
    "campus_en": "Sehan University, Yeongam Campus",
    "addr_ko": "전라남도 (58447) 전라남도 영암군 삼호읍 녹색로 1113",
    "addr_en": "(58447) 1113 Noksaek-ro, Samho-eup, Yeongam-gun, Jeollanam-do, Jeollanam-do",
    "num_ap": 0,
    "realm": "sehan.ac.kr"
  },
  {
    "lat": 36.8761556,
    "lng": 126.7806583,
    "name_ko": "세한대학교",
    "name_en": "Sehan University",
    "campus_ko": "세한대학교 당진캠퍼스",
    "campus_en": "Sehan University, Dangjin Campus",
    "addr_ko": "충청남도 (31746) 충청남도 당진시 신평면 서해로 7065",
    "addr_en": "(31746) 7065 Seohae-ro, Sinpyeong-myeon, Dangjin-si, Chungcheongnam-do, Chungcheongnam-do",
    "num_ap": 0,
    "realm": "sehan.ac.kr"
  },
  {
    "lat": 37.2101175,
    "lng": 126.9794804,
    "name_ko": "수원대학교",
    "name_en": "THE UNIVERSITY OF SUWON",
    "campus_ko": "수원대학교 화성캠퍼스",
    "campus_en": "The University of Suwon, Hwaseong Campus",
    "addr_ko": "경기도 (18323) 경기도 화성시 봉담읍 와우안길 17",
    "addr_en": "(18323) 17 Wauan-gil, Bongdam-eup, Hwaseong-si, Gyeonggi-do, Gyeonggi-do",
    "num_ap": 536,
    "realm": "suwon.ac.kr"
  },
  {
    "lat": 37.5449609,
    "lng": 126.9650253,
    "name_ko": "숙명여자대학교",
    "name_en": "Sookmyung Women's University",
    "campus_ko": "숙명여자대학교 청파캠퍼스",
    "campus_en": "Sookmyung Women's University, Cheongpa Campus",
    "addr_ko": "서울특별시 (04310) 서울특별시 용산구 청파로47길 100",
    "addr_en": "(04310) 100 Cheongpa-ro 47-gil, Yongsan-gu, Seoul, Seoul",
    "num_ap": 0,
    "realm": "sookmyung.ac.kr"
  },
  {
    "lat": 34.9667702,
    "lng": 127.4809263,
    "name_ko": "순천대학교",
    "name_en": "Sunchon National University",
    "campus_ko": "국립순천대학교",
    "campus_en": "Sunchon National University",
    "addr_ko": "전라남도 (57922) 전라남도 순천시 중앙로 255",
    "addr_en": "(57922) 255 Jungang-ro, Suncheon-si, Jeollanam-do, Jeollanam-do",
    "num_ap": 603,
    "realm": "scnu.ac.kr"
  },
  {
    "lat": 37.496429,
    "lng": 126.9551579,
    "name_ko": "숭실대학교",
    "name_en": "Soongsil University",
    "campus_ko": "숭실대학교 상도캠퍼스",
    "campus_en": "Soongsil University, Sangdo Campus",
    "addr_ko": "서울특별시 (06978) 서울특별시 동작구 상도로 369",
    "addr_en": "(06978) 369 Sangdo-ro, Dongjak-gu, Seoul, Seoul",
    "num_ap": 0,
    "realm": "ssu.ac.kr"
  },
  {
    "lat": 37.710201,
    "lng": 127.0462897,
    "name_ko": "신한대학교",
    "name_en": "Shinhan University",
    "campus_ko": "신한대학교 제1캠퍼스",
    "campus_en": "Shinhan University, Campus 1",
    "addr_ko": "경기도 (11644) 경기도 의정부시 호암로 95",
    "addr_en": "(11644) 95 Hoam-ro, Uijeongbu-si, Gyeonggi-do, Gyeonggi-do",
    "num_ap": 400,
    "realm": "shinhan.ac.kr"
  },
  {
    "lat": 37.2831922,
    "lng": 127.0441282,
    "name_ko": "아주대학교",
    "name_en": "Ajou University",
    "campus_ko": "아주대학교 수원캠퍼스",
    "campus_en": "Ajou University, Suwon Campus",
    "addr_ko": "경기도 (16499) 경기도 수원시 영통구 월드컵로 206",
    "addr_en": "(16499) 206 World cup-ro, Yeongtong-gu, Suwon-si, Gyeonggi-do, Gyeonggi-do",
    "num_ap": 943,
    "realm": "ajou.ac.kr"
  },
  {
    "lat": 37.5663937,
    "lng": 126.9387066,
    "name_ko": "연세대학교",
    "name_en": "Yonsei University",
    "campus_ko": "연세대학교 신촌캠퍼스",
    "campus_en": "Yonsei University, Sinchon Campus",
    "addr_ko": "서울특별시 (03722) 서울특별시 서대문구 연세로 50",
    "addr_en": "(03722) 50 Yonsei-ro, Seodaemun-gu, Seoul, Seoul",
    "num_ap": 2800,
    "realm": "yonsei.ac.kr"
  },
  {
    "lat": 37.2748317,
    "lng": 127.904328,
    "name_ko": "연세대학교",
    "name_en": "Yonsei University",
    "campus_ko": "연세대학교 미래캠퍼스",
    "campus_en": "Yonsei University, Mirae Campus",
    "addr_ko": "강원특별자치도 (26493) 강원특별자치도 원주시 연세대길 1",
    "addr_en": "(26493) 1 Yonseidae-gil, Wonju-si, Gangwon-do, Gangwon-do",
    "num_ap": 490,
    "realm": "yonsei.ac.kr"
  },
  {
    "lat": 37.3818221,
    "lng": 126.6672446,
    "name_ko": "연세대학교",
    "name_en": "Yonsei University",
    "campus_ko": "연세대학교 국제캠퍼스",
    "campus_en": "Yonsei University, International Campus",
    "addr_ko": "인천광역시 (21983) 인천광역시 연수구 송도과학로 85",
    "addr_en": "(21983) 85 Songdogwahak-ro, Yeonsu-gu, Incheon, Incheon",
    "num_ap": 0,
    "realm": "yonsei.ac.kr"
  },
  {
    "lat": 35.8304926,
    "lng": 128.7521818,
    "name_ko": "영남대학교",
    "name_en": "Yeungnam University",
    "campus_ko": "영남대학교 경산캠퍼스",
    "campus_en": "Yeungnam University, Gyeongsan Campus",
    "addr_ko": "경상북도 (38541) 경상북도 경산시 대학로 280",
    "addr_en": "(38541) 280 Daehak-ro, Gyeongsan-si, Gyeongsangbuk-do, Gyeongsangbuk-do",
    "num_ap": 0,
    "realm": "yu.ac.kr"
  },
  {
    "lat": 35.8457916,
    "lng": 128.5857555,
    "name_ko": "영남이공대학교",
    "name_en": "Yeungnam University College",
    "campus_ko": "영남이공대학교",
    "campus_en": "Yeungnam University College",
    "addr_ko": "대구광역시 (42415) 대구광역시 남구 현충로 170",
    "addr_en": "(42415) 170 Hyeonchung-ro, Nam-gu, Daegu, Daegu",
    "num_ap": 0,
    "realm": "ync.ac.kr"
  },
  {
    "lat": 35.5734176,
    "lng": 129.189629,
    "name_ko": "울산과학기술원",
    "name_en": "Ulsan National Institute of Science and Technology",
    "campus_ko": "울산과학기술원",
    "campus_en": "Ulsan National Institute of Science and Technology",
    "addr_ko": "울산광역시 (44919) 울산광역시 울주군 언양읍 유니스트길 50",
    "addr_en": "(44919) 50 UNIST-gil, Eonyang-eup, Ulju-gun, Ulsan, Ulsan",
    "num_ap": 1200,
    "realm": "unist.ac.kr"
  },
  {
    "lat": 35.5418772,
    "lng": 129.2575865,
    "name_ko": "울산대학교",
    "name_en": "University of Ulsan",
    "campus_ko": "울산대학교",
    "campus_en": "University of Ulsan",
    "addr_ko": "울산광역시 (44610) 울산광역시 남구 대학로 93",
    "addr_en": "(44610) 93 Daehak-ro, Nam-gu, Ulsan, Ulsan",
    "num_ap": 677,
    "realm": "ulsan.ac.kr"
  },
  {
    "lat": 35.971714,
    "lng": 126.9602243,
    "name_ko": "원광대학교",
    "name_en": "Wonkwang University",
    "campus_ko": "원광대학교 익산캠퍼스",
    "campus_en": "Wonkwang University, Iksan Campus",
    "addr_ko": "전라북도 (54538) 전라북도 익산시 익산대로 460",
    "addr_en": "(54538) 460 Iksan-daero, Iksan-si, Jeollabuk-do, Jeollabuk-do",
    "num_ap": 0,
    "realm": "wku.ac.kr"
  },
  {
    "lat": 35.9727469,
    "lng": 126.9561967,
    "name_ko": "원광보건대학교",
    "name_en": "Wonkwang Health Science University",
    "campus_ko": "원광보건대학교",
    "campus_en": "Wonkwang Health Science University",
    "addr_ko": "전라북도 (54538) 전라북도 익산시 익산대로 514",
    "addr_en": "(54538) 514 Iksan-daero, Iksan-si, Jeollabuk-do, Jeollabuk-do",
    "num_ap": 380,
    "realm": "wu.ac.kr"
  },
  {
    "lat": 37.4881299,
    "lng": 126.8223663,
    "name_ko": "유한대학교",
    "name_en": "Yuhan University",
    "campus_ko": "유한대학교",
    "campus_en": "Yuhan University",
    "addr_ko": "경기도 (14780) 경기도 부천시 경인로 590",
    "addr_en": "(14780) 590 Gyeongin-ro, Bucheon-si, Gyeonggi-do, Gyeonggi-do",
    "num_ap": 0,
    "realm": "yuhan.ac.kr"
  },
  {
    "lat": 37.5644641,
    "lng": 126.9502883,
    "name_ko": "이화여자대학교",
    "name_en": "Ewha Womans University",
    "campus_ko": "이화여자대학교",
    "campus_en": "Ewha Womans University",
    "addr_ko": "서울특별시 (03760) 서울특별시 서대문구 이화여대길 52",
    "addr_en": "(03760) 52 Ewhayeodae-gil, Seodaemun-gu, Seoul, Seoul",
    "num_ap": 0,
    "realm": "ewha.ac.kr"
  },
  {
    "lat": 35.2528091,
    "lng": 128.900516,
    "name_ko": "인제대학교",
    "name_en": "Inje University",
    "campus_ko": "인제대학교 김해캠퍼스",
    "campus_en": "Inje University, Gimhae Campus",
    "addr_ko": "경상남도 (50834) 경상남도 김해시 인제로 197",
    "addr_en": "(50834) 197 Inje-ro, Gimhae-si, Gyeongsangnam-do, Gyeongsangnam-do",
    "num_ap": 0,
    "realm": "inje.ac.kr"
  },
  {
    "lat": 37.3778557,
    "lng": 126.6325053,
    "name_ko": "인천대학교",
    "name_en": "Incheon National University",
    "campus_ko": "국립인천대학교 송도캠퍼스",
    "campus_en": "Incheon National University, Songdo Campus",
    "addr_ko": "인천광역시 (22012) 인천광역시 연수구 아카데미로 119",
    "addr_en": "(22012) 119 Academy-ro, Yeonsu-gu, Incheon, Incheon",
    "num_ap": 0,
    "realm": "inu.ac.kr"
  },
  {
    "lat": 37.4500221,
    "lng": 126.653488,
    "name_ko": "인하대학교",
    "name_en": "Inha University",
    "campus_ko": "인하대학교",
    "campus_en": "Inha University",
    "addr_ko": "인천광역시 (22212) 인천광역시 미추홀구 인하로 100",
    "addr_en": "(22212) 100 Inha-ro, Michuhol-gu, Incheon, Incheon",
    "num_ap": 750,
    "realm": "inha.ac.kr"
  },
  {
    "lat": 37.5502658,
    "lng": 127.1031345,
    "name_ko": "장로회신학대학교",
    "name_en": "Presbyterian University and Theological Seminary",
    "campus_ko": "장로회신학대학교",
    "campus_en": "Presbyterian University and Theological Seminary",
    "addr_ko": "서울특별시 (04965) 서울특별시 광진구 광장로5길 25-1",
    "addr_en": "(04965) 25-1 Gwangjang-ro 5-gil, Gwangjin-gu, Seoul, Seoul",
    "num_ap": 0,
    "realm": "puts.ac.kr"
  },
  {
    "lat": 35.0611776,
    "lng": 127.0032186,
    "name_ko": "전남대학교",
    "name_en": "Chonnam National University",
    "campus_ko": "전남대학교 화순캠퍼스",
    "campus_en": "Chonnam National University, Hwasun Campus",
    "addr_ko": "전라남도 (58128) 전라남도 화순군 화순읍 서양로 264",
    "addr_en": "(58128) 264 Seoyang-ro, Hwasun-eup, Hwasun-gun, Jeollanam-do, Jeollanam-do",
    "num_ap": 162,
    "realm": "jnu.ac.kr"
  },
  {
    "lat": 35.143167,
    "lng": 126.9232647,
    "name_ko": "전남대학교",
    "name_en": "Chonnam National University",
    "campus_ko": "전남대학교 학동캠퍼스",
    "campus_en": "Chonnam National University, Hakdong Campus",
    "addr_ko": "광주광역시 (61469) 광주광역시 동구 제봉로 42",
    "addr_en": "(61469) 42 Jebong-ro, Dong-gu, Gwangju, Gwangju",
    "num_ap": 156,
    "realm": "jnu.ac.kr"
  },
  {
    "lat": 34.77487,
    "lng": 127.6994546,
    "name_ko": "전남대학교",
    "name_en": "Chonnam National University",
    "campus_ko": "전남대학교 여수캠퍼스",
    "campus_en": "Chonnam National University, Yeosu Campus",
    "addr_ko": "전라남도 (59626) 전라남도 여수시 대학로 50",
    "addr_en": "(59626) 50 Daehak-ro, Yeosu-si, Jeollanam-do, Jeollanam-do",
    "num_ap": 403,
    "realm": "jnu.ac.kr"
  },
  {
    "lat": 35.1738807,
    "lng": 126.911143,
    "name_ko": "전남대학교",
    "name_en": "Chonnam National University",
    "campus_ko": "전남대학교 광주캠퍼스",
    "campus_en": "Chonnam National University, Gwangju Campus",
    "addr_ko": "광주광역시 (61186) 광주광역시 북구 용봉로 77",
    "addr_en": "(61186) 77 Yongbong-ro, Buk-gu, Gwangju, Gwangju",
    "num_ap": 2101,
    "realm": "jnu.ac.kr"
  },
  {
    "lat": 35.8468171,
    "lng": 127.1299221,
    "name_ko": "전북대학교",
    "name_en": "Jeonbuk National University",
    "campus_ko": "전북대학교 전주캠퍼스",
    "campus_en": "Jeonbuk National University, Jeonju Campus",
    "addr_ko": "전라북도 (54896) 전라북도 전주시 덕진구 백제대로 567",
    "addr_en": "(54896) 567 Baekje-daero, Deokjin-gu, Jeonju-si, Jeollabuk-do, Jeollabuk-do",
    "num_ap": 0,
    "realm": "jbnu.ac.kr"
  },
  {
    "lat": 35.9428616,
    "lng": 126.9597161,
    "name_ko": "전북대학교",
    "name_en": "Jeonbuk National University",
    "campus_ko": "전북대학교 익산캠퍼스(특성화)",
    "campus_en": "Jeonbuk National University, Iksan Specialized Campus",
    "addr_ko": "전라북도 (54596) 전라북도 익산시 고봉로 79",
    "addr_en": "(54596) 79 Gobong-ro, Iksan-si, Jeollabuk-do, Jeollabuk-do",
    "num_ap": 0,
    "realm": "jbnu.ac.kr"
  },
  {
    "lat": 35.8091628,
    "lng": 127.1538032,
    "name_ko": "전주교육대학교",
    "name_en": "Jeonju National University of Education",
    "campus_ko": "전주교육대학교",
    "campus_en": "Jeonju National University of Education",
    "addr_ko": "전라북도 (55101) 전라북도 전주시 완산구 서학로 50",
    "addr_en": "(55101) 50 Seohak-ro, Wansan-gu, Jeonju-si, Jeollabuk-do, Jeollabuk-do",
    "num_ap": 249,
    "realm": "jnue.ac.kr"
  },
  {
    "lat": 35.8162221,
    "lng": 127.0888855,
    "name_ko": "전주대학교",
    "name_en": "Jeonju University",
    "campus_ko": "전주대학교",
    "campus_en": "Jeonju University",
    "addr_ko": "전라북도 (55069) 전라북도 전주시 완산구 천잠로 303",
    "addr_en": "(55069) 303 Cheonjam-ro, Wansan-gu, Jeonju-si, Jeollabuk-do, Jeollabuk-do",
    "num_ap": 0,
    "realm": "jj.ac.kr"
  },
  {
    "lat": 35.8108779,
    "lng": 127.0909641,
    "name_ko": "전주비전대학교",
    "name_en": "Vision College of Jeonju",
    "campus_ko": "전주비전대학교",
    "campus_en": "Vision College of Jeonju",
    "addr_ko": "전라북도 (55069) 전라북도 전주시 완산구 천잠로 235",
    "addr_en": "(55069) 235 Cheonjam-ro, Wansan-gu, Jeonju-si, Jeollabuk-do, Jeollabuk-do",
    "num_ap": 260,
    "realm": "jvision.ac.kr"
  },
  {
    "lat": 33.4572478,
    "lng": 126.5643602,
    "name_ko": "제주대학교",
    "name_en": "Jeju National University",
    "campus_ko": "국립제주대학교 아라캠퍼스",
    "campus_en": "Jeju National University, Ara Campus",
    "addr_ko": "제주특별자치도 (63243) 제주특별자치도 제주시 제주대학로 102",
    "addr_en": "(63243) 102 Jejudaehak-ro, Jeju-si, Jeju-do, Jeju-do",
    "num_ap": 934,
    "realm": "jejunu.ac.kr"
  },
  {
    "lat": 35.1460038,
    "lng": 126.9343632,
    "name_ko": "조선대학교",
    "name_en": "Chosun University",
    "campus_ko": "조선대학교",
    "campus_en": "Chosun University",
    "addr_ko": "광주광역시 (61452) 광주광역시 동구 필문대로 309",
    "addr_en": "(61452) 309 Pilmun-daero, Dong-gu, Gwangju, Gwangju",
    "num_ap": 0,
    "realm": "chosun.ac.kr"
  },
  {
    "lat": 37.0004292,
    "lng": 127.2287087,
    "name_ko": "중앙대학교",
    "name_en": "Chung-Ang University",
    "campus_ko": "중앙대학교 다빈치캠퍼스",
    "campus_en": "Chung-Ang University, Da Vinci Campus",
    "addr_ko": "경기도 (17546) 경기도 안성시 대덕면 서동대로 4726",
    "addr_en": "(17546) 4726 Seodong-daero, Daedeok-myeon, Anseong-si, Gyeonggi-do, Gyeonggi-do",
    "num_ap": 1026,
    "realm": "cau.ac.kr"
  },
  {
    "lat": 37.5047256,
    "lng": 126.9538339,
    "name_ko": "중앙대학교",
    "name_en": "Chung-Ang University",
    "campus_ko": "중앙대학교 서울캠퍼스",
    "campus_en": "Chung-Ang University, Seoul Campus",
    "addr_ko": "서울특별시 (06974) 서울특별시 동작구 흑석로 84",
    "addr_en": "(06974) 84 Heukseok-ro, Dongjak-gu, Seoul, Seoul",
    "num_ap": 2177,
    "realm": "cau.ac.kr"
  },
  {
    "lat": 35.2459592,
    "lng": 128.6948485,
    "name_ko": "창원대학교",
    "name_en": "Changwon National University",
    "campus_ko": "국립창원대학교",
    "campus_en": "Changwon National University",
    "addr_ko": "경상남도 (51140) 경상남도 창원시 의창구 창원대학로 20",
    "addr_en": "(51140) 20 Changwondaehak-ro, Uichang-gu, Changwon-si, Gyeongsangnam-do, Gyeongsangnam-do",
    "num_ap": 0,
    "realm": "cwnu.ac.kr"
  },
  {
    "lat": 36.6154305,
    "lng": 127.4840113,
    "name_ko": "청주교육대학교",
    "name_en": "Cheongju National University Of Education",
    "campus_ko": "청주교육대학교",
    "campus_en": "Cheongju National University of Education",
    "addr_ko": "충청북도 (28690) 충청북도 청주시 서원구 청남로 2065",
    "addr_en": "(28690) 2065 Cheongnam-ro, Seowon-gu, Cheongju-si, Chungcheongbuk-do, Chungcheongbuk-do",
    "num_ap": 474,
    "realm": "cje.ac.kr"
  },
  {
    "lat": 37.8594161,
    "lng": 127.7486049,
    "name_ko": "춘천교육대학교",
    "name_en": "Chuncheon National University of Education",
    "campus_ko": "춘천교육대학교",
    "campus_en": "Chuncheon National University of Education",
    "addr_ko": "강원특별자치도 (24328) 강원특별자치도 춘천시 공지로 126",
    "addr_en": "(24328) 126 Gongji-ro, Chuncheon-si, Gangwon-do, Gangwon-do",
    "num_ap": 393,
    "realm": "cnue.ac.kr"
  },
  {
    "lat": 36.3683682,
    "lng": 127.3420001,
    "name_ko": "충남대학교",
    "name_en": "Chungnam National University",
    "campus_ko": "충남대학교 대덕캠퍼스",
    "campus_en": "Chungnam National University, Daedeok Campus",
    "addr_ko": "대전광역시 (34134) 대전광역시 유성구 대학로 99",
    "addr_en": "(34134) 99 Daehak-ro, Yuseong-gu, Daejeon, Daejeon",
    "num_ap": 2414,
    "realm": "cnu.ac.kr"
  },
  {
    "lat": 36.3163192,
    "lng": 127.4138007,
    "name_ko": "충남대학교",
    "name_en": "Chungnam National University",
    "campus_ko": "충남대학교 보운캠퍼스",
    "campus_en": "Chungnam National University, Boun Campus",
    "addr_ko": "대전광역시 (35015) 대전광역시 중구 문화로 266",
    "addr_en": "(35015) 266 Munhwa-ro, Jung-gu, Daejeon, Daejeon",
    "num_ap": 160,
    "realm": "cnu.ac.kr"
  },
  {
    "lat": 36.6300393,
    "lng": 127.454792,
    "name_ko": "충북대학교",
    "name_en": "Chungbuk National University",
    "campus_ko": "충북대학교",
    "campus_en": "Chungbuk National University",
    "addr_ko": "충청북도 (28644) 충청북도 청주시 서원구 충대로 1",
    "addr_en": "(28644) 1 Chungdae-ro, Seowon-gu, Cheongju-si, Chungcheongbuk-do, Chungcheongbuk-do",
    "num_ap": 2100,
    "realm": "cbnu.ac.kr"
  },
  {
    "lat": 36.7035004,
    "lng": 127.5533575,
    "name_ko": "충북보건과학대학교",
    "name_en": "Chungbuk Health & Science University",
    "campus_ko": "충북보건과학대학교",
    "campus_en": "Chungbuk Health & Science University",
    "addr_ko": "충청북도 (28150) 충청북도 청주시 청원구 내수읍 덕암길 10",
    "addr_en": "(28150) 10 Deogam-gil, Naesu-eup, Cheongwon-gu, Cheongju-si, Chungcheongbuk-do, Chungcheongbuk-do",
    "num_ap": 10,
    "realm": "chsu.ac.kr"
  },
  {
    "lat": 37.5849,
    "lng": 126.8857,
    "name_ko": "(재)테인협력센터",
    "name_en": "TEIN Cooperation Centre",
    "campus_ko": "(재)테인협력센터",
    "campus_en": "TEIN Cooperation Centre",
    "addr_ko": "(03920) 서울특별시 마포구 성암로 330 DMC첨단산업센터 A동 708호",
    "addr_en": "(03920) A-708, DMC High-Tech Industry Center, 330 Seongam-ro, Mapo-gu, Seoul",
    "num_ap": 0,
    "realm": "teincc.kr"
  },
  {
    "lat": 36.0105874,
    "lng": 129.3212998,
    "name_ko": "포항공과대학교",
    "name_en": "Pohang University of Science and Technology",
    "campus_ko": "포항공과대학교",
    "campus_en": "Pohang University of Science and Technology",
    "addr_ko": "경상북도 (37673) 경상북도 포항시 남구 청암로 77",
    "addr_en": "(37673) 77 Cheongam-ro, Nam-gu, Pohang-si, Gyeongsangbuk-do, Gyeongsangbuk-do",
    "num_ap": 0,
    "realm": "postech.ac.kr"
  },
  {
    "lat": 37.3397327,
    "lng": 126.7335394,
    "name_ko": "한국공학대학교",
    "name_en": "Tech University of Korea",
    "campus_ko": "한국공학대학교 시흥캠퍼스",
    "campus_en": "Tech University of Korea, Siheung Campus",
    "addr_ko": "경기도 (15073) 경기도 시흥시 산기대학로 237",
    "addr_en": "(15073) 237 Sangidaehak-ro, Siheung-si, Gyeonggi-do, Gyeonggi-do",
    "num_ap": 724,
    "realm": "tukorea.ac.kr"
  },
  {
    "lat": 37.3305323,
    "lng": 126.6894889,
    "name_ko": "한국공학대학교",
    "name_en": "Tech University of Korea",
    "campus_ko": "한국공학대학교 제2캠퍼스(정왕)",
    "campus_en": "Tech University of Korea, 2nd Campus",
    "addr_ko": "경기도 (15073) 경기도 시흥시 정왕대로 271",
    "addr_en": "(15073) 271 Jeongwang-daero, Siheung-si, Gyeonggi-do, Gyeonggi-do",
    "num_ap": 117,
    "realm": "tukorea.ac.kr"
  },
  {
    "lat": 36.365786,
    "lng": 127.359266,
    "name_ko": "한국과학기술정보연구원",
    "name_en": "Korea Institute of Science and Technology Information",
    "campus_ko": "본원",
    "campus_en": "KISTI, Korea Institute of Science and Technology Information",
    "addr_ko": "대전광역시 (34141) 대전광역시 유성구 대학로 245",
    "addr_en": "245 Daehangno, Yuseong-gu, Daejeon 34141, Daejeon 34141",
    "num_ap": 0,
    "realm": "kisti.re.kr"
  },
  {
    "lat": 36.605666,
    "lng": 127.3573245,
    "name_ko": "한국교원대학교",
    "name_en": "Korea National University of Education",
    "campus_ko": "국립한국교원대학교",
    "campus_en": "Korea National University of Education",
    "addr_ko": "충청북도 (28173) 충청북도 청주시 흥덕구 강내면 태성탑연로 250",
    "addr_en": "(28173) 250 Taeseongtabyeon-ro, Gangnae-myeon, Heungdeok-gu, Cheongju-si, Chungcheongbuk-do, Chungcheongbuk-do",
    "num_ap": 512,
    "realm": "knue.ac.kr"
  },
  {
    "lat": 36.765105,
    "lng": 127.2812004,
    "name_ko": "한국기술교육대학교",
    "name_en": "Korea University of Technology and Education",
    "campus_ko": "한국기술교육대학교",
    "campus_en": "Korea University of Technology and Education",
    "addr_ko": "충청남도 (31253) 충청남도 천안시 동남구 병천면 충절로 1600",
    "addr_en": "(31253) 1600 Chungjeol-ro, Byeongcheon-myeon, Dongnam-gu, Cheonan-si, Chungcheongnam-do, Chungcheongnam-do",
    "num_ap": 1,
    "realm": "koreatech.ac.kr"
  },
  {
    "lat": 37.5791955,
    "lng": 127.0032909,
    "name_ko": "한국방송통신대학교",
    "name_en": "Korea National Open University",
    "campus_ko": "국립한국방송통신대학교 본부",
    "campus_en": "Korea National Open University",
    "addr_ko": "서울특별시 (03087) 서울특별시 종로구 대학로 86",
    "addr_en": "(03087) 86 Daehak-ro, Jongno-gu, Seoul, Seoul",
    "num_ap": 348,
    "realm": "knou.ac.kr"
  },
  {
    "lat": 37.7748776,
    "lng": 128.9303092,
    "name_ko": "한국방송통신대학교",
    "name_en": "Korea National Open University",
    "campus_ko": "국립한국방송통신대학교 강원지역대학 강릉시학습관",
    "campus_en": "Korea National Open University Gangwon Regional College Gangneung Study Center",
    "addr_ko": "강원특별자치도 (25522) 강원특별자치도 강릉시 남구길 29",
    "addr_en": "(25522) 29 Namgu-gil, Gangneung-si, Gangwon-do, Gangwon-do",
    "num_ap": 0,
    "realm": "knou.ac.kr"
  },
  {
    "lat": 33.4859246,
    "lng": 126.473631,
    "name_ko": "한국방송통신대학교",
    "name_en": "Korea National Open University",
    "campus_ko": "국립한국방송통신대학교 제주지역대학",
    "campus_en": "Korea National Open University Jeju Regional College",
    "addr_ko": "제주특별자치도 (63219) 제주특별자치도 제주시 명림로 261",
    "addr_en": "(63219) 261 Myeongnim-ro, Jeju-si, Jeju-do, Jeju-do",
    "num_ap": 16,
    "realm": "knou.ac.kr"
  },
  {
    "lat": 35.2240259,
    "lng": 129.0064812,
    "name_ko": "한국방송통신대학교",
    "name_en": "Korea National Open University",
    "campus_ko": "국립한국방송통신대학교 부산지역대학",
    "campus_en": "Korea National Open University Busan Regional College",
    "addr_ko": "부산광역시 (47340) 부산광역시 부산진구 중앙대로 997",
    "addr_en": "(47340) 997 Jungang-daero, Busanjin-gu, Busan, Busan",
    "num_ap": 18,
    "realm": "knou.ac.kr"
  },
  {
    "lat": 36.4150616,
    "lng": 127.40105,
    "name_ko": "한국방송통신대학교",
    "name_en": "Korea National Open University",
    "campus_ko": "국립한국방송통신대학교 대전충남지역대학",
    "campus_en": "Korea National Open University Daejeon-Chungnam Regional College",
    "addr_ko": "대전광역시 (35203) 대전광역시 서구 계룡로 314",
    "addr_en": "(35203) 314 Gyeryong-ro, Seo-gu, Daejeon, Daejeon",
    "num_ap": 18,
    "realm": "knou.ac.kr"
  },
  {
    "lat": 37.5475777,
    "lng": 127.0456712,
    "name_ko": "한국방송통신대학교",
    "name_en": "Korea National Open University",
    "campus_ko": "국립한국방송통신대학교 서울지역대학",
    "campus_en": "Korea National Open University Seoul Regional College",
    "addr_ko": "서울특별시 (04799) 서울특별시 성동구 아차산로 66",
    "addr_en": "(04799) 66 Achasan-ro, Seongdong-gu, Seoul, Seoul",
    "num_ap": 77,
    "realm": "knou.ac.kr"
  },
  {
    "lat": 35.8597865,
    "lng": 128.4948399,
    "name_ko": "한국방송통신대학교",
    "name_en": "Korea National Open University",
    "campus_ko": "국립한국방송통신대학교 대구경북지역대학",
    "campus_en": "Korea National Open University Daegu-Gyeongbuk Regional College",
    "addr_ko": "대구광역시 (41937) 대구광역시 중구 국채보상로 731",
    "addr_en": "(41937) 731 Gukchaebosang-ro, Jung-gu, Daegu, Daegu",
    "num_ap": 18,
    "realm": "knou.ac.kr"
  },
  {
    "lat": 37.5294934,
    "lng": 126.8653435,
    "name_ko": "한국방송통신대학교",
    "name_en": "Korea National Open University",
    "campus_ko": "국립한국방송통신대학교 서울지역대학 남부학습센터",
    "campus_en": "Korea National Open University Seoul Regional College Southern Study Center",
    "addr_ko": "서울특별시 (08505) 서울특별시 금천구 시흥대로 391",
    "addr_en": "(08505) 391 Siheung-daero, Geumcheon-gu, Seoul, Seoul",
    "num_ap": 0,
    "realm": "knou.ac.kr"
  },
  {
    "lat": 37.6505307,
    "lng": 126.8764479,
    "name_ko": "한국방송통신대학교",
    "name_en": "Korea National Open University",
    "campus_ko": "국립한국방송통신대학교 서울지역대학 서부학습센터",
    "campus_en": "Korea National Open University Seoul Regional College Western Study Center",
    "addr_ko": "경기도 (10364) 경기도 고양시 일산동구 중앙로 1275번길 38-10",
    "addr_en": "(10364) 38-10 Jungang-ro 1275beon-gil, Ilsandong-gu, Goyang-si, Gyeonggi-do, Gyeonggi-do",
    "num_ap": 0,
    "realm": "knou.ac.kr"
  },
  {
    "lat": 35.8249177,
    "lng": 127.1408141,
    "name_ko": "한국방송통신대학교",
    "name_en": "Korea National Open University",
    "campus_ko": "국립한국방송통신대학교 전북지역대학",
    "campus_en": "Korea National Open University Jeonbuk Regional College",
    "addr_ko": "전북특별자치도 (54906) 전북특별자치도 전주시 덕진구 벚꽃로 54",
    "addr_en": "(54906) 54 Beotkkot-ro, Deokjin-gu, Jeonju-si, Jeollabuk-do, Jeollabuk-do",
    "num_ap": 16,
    "realm": "knou.ac.kr"
  },
  {
    "lat": 37.8713418,
    "lng": 127.7211125,
    "name_ko": "한국방송통신대학교",
    "name_en": "Korea National Open University",
    "campus_ko": "국립한국방송통신대학교 강원지역대학",
    "campus_en": "Korea National Open University Gangwon Regional College",
    "addr_ko": "강원특별자치도 (24239) 강원특별자치도 춘천시 영서로 2854",
    "addr_en": "(24239) 2854 Yeongseo-ro, Chuncheon-si, Gangwon-do, Gangwon-do",
    "num_ap": 21,
    "realm": "knou.ac.kr"
  },
  {
    "lat": 35.5784695,
    "lng": 129.314289,
    "name_ko": "한국방송통신대학교",
    "name_en": "Korea National Open University",
    "campus_ko": "국립한국방송통신대학교 울산지역대학",
    "campus_en": "Korea National Open University Ulsan Regional College",
    "addr_ko": "울산광역시 (44676) 울산광역시 남구 대학로 93",
    "addr_en": "(44676) 93 Daehak-ro, Nam-gu, Ulsan, Ulsan",
    "num_ap": 20,
    "realm": "knou.ac.kr"
  },
  {
    "lat": 37.4528465,
    "lng": 126.7044411,
    "name_ko": "한국방송통신대학교",
    "name_en": "Korea National Open University",
    "campus_ko": "국립한국방송통신대학교 인천지역대학",
    "campus_en": "Korea National Open University Incheon Regional College",
    "addr_ko": "인천광역시 (22123) 인천광역시 미추홀구 아암대로 175",
    "addr_en": "(22123) 175 Aam-daero, Michuhol-gu, Incheon, Incheon",
    "num_ap": 22,
    "realm": "knou.ac.kr"
  },
  {
    "lat": 36.6241354,
    "lng": 127.4677602,
    "name_ko": "한국방송통신대학교",
    "name_en": "Korea National Open University",
    "campus_ko": "국립한국방송통신대학교 충북지역대학",
    "campus_en": "Korea National Open University Chungbuk Regional College",
    "addr_ko": "충청북도 (28515) 충청북도 청주시 상당구 상당로 106",
    "addr_en": "(28515) 106 Sangdang-ro, Sangdang-gu, Cheongju-si, Chungcheongbuk-do, Chungcheongbuk-do",
    "num_ap": 16,
    "realm": "knou.ac.kr"
  },
  {
    "lat": 35.207452,
    "lng": 126.8360555,
    "name_ko": "한국방송통신대학교",
    "name_en": "Korea National Open University",
    "campus_ko": "국립한국방송통신대학교 광주전남지역대학",
    "campus_en": "Korea National Open University Gwangju-Jeonnam Regional College",
    "addr_ko": "광주광역시 (62204) 광주광역시 광산구 상무대로 312",
    "addr_en": "(62204) 312 Sangmu-daero, Gwangsan-gu, Gwangju, Gwangju",
    "num_ap": 18,
    "realm": "knou.ac.kr"
  },
  {
    "lat": 35.1771144,
    "lng": 128.5670251,
    "name_ko": "한국방송통신대학교",
    "name_en": "Korea National Open University",
    "campus_ko": "국립한국방송통신대학교 경남지역대학 창원시학습관",
    "campus_en": "Korea National Open University Gyeongnam Regional College Changwon Study Center",
    "addr_ko": "경상남도 (51439) 경상남도 창원시 의창구 원이대로 362",
    "addr_en": "(51439) 362 Wonidaero, Uichang-gu, Changwon-si, Gyeongsangnam-do, Gyeongsangnam-do",
    "num_ap": 0,
    "realm": "knou.ac.kr"
  },
  {
    "lat": 37.2407527,
    "lng": 126.9582424,
    "name_ko": "한국방송통신대학교",
    "name_en": "Korea National Open University",
    "campus_ko": "국립한국방송통신대학교 경기지역대학",
    "campus_en": "Korea National Open University Gyeonggi Regional College",
    "addr_ko": "경기도 (16490) 경기도 수원시 권선구 경수대로 270",
    "addr_en": "(16490) 270 Gyeongsu-daero, Gwonseon-gu, Suwon-si, Gyeonggi-do, Gyeonggi-do",
    "num_ap": 37,
    "realm": "knou.ac.kr"
  },
  {
    "lat": 37.3493348,
    "lng": 127.1095216,
    "name_ko": "한국방송통신대학교",
    "name_en": "Korea National Open University",
    "campus_ko": "국립한국방송통신대학교 경기지역대학 성남시학습관",
    "campus_en": "Korea National Open University Gyeonggi Regional College Seongnam Study Center",
    "addr_ko": "경기도 (13590) 경기도 성남시 분당구 성남대로 2",
    "addr_en": "(13590) 2 Seongnam-daero, Bundang-gu, Seongnam-si, Gyeonggi-do, Gyeonggi-do",
    "num_ap": 0,
    "realm": "knou.ac.kr"
  },
  {
    "lat": 35.0106284,
    "lng": 126.8032939,
    "name_ko": "한국에너지공과대학교",
    "name_en": "Korea Institute of Energy Technology",
    "campus_ko": "한국에너지공과대학교",
    "campus_en": "Korea Institute of Energy Technology",
    "addr_ko": "전라남도 (58330) 전라남도 나주시 에너지공대길 200",
    "addr_en": "(58330) 200 Energygongdae-gil, Naju-si, Jeollanam-do, Jeollanam-do",
    "num_ap": 40,
    "realm": "kentech.ac.kr"
  },
  {
    "lat": 37.598298,
    "lng": 127.0579417,
    "name_ko": "한국외국어대학교",
    "name_en": "Hankuk University of Foreign Studies",
    "campus_ko": "한국외국어대학교 서울캠퍼스",
    "campus_en": "Hankuk University of Foreign Studies, Seoul Campus",
    "addr_ko": "서울특별시 (02450) 서울특별시 동대문구 이문로 107",
    "addr_en": "(02450) 107 Imun-ro, Dongdaemun-gu, Seoul, Seoul",
    "num_ap": 640,
    "realm": "hufs.ac.kr"
  },
  {
    "lat": 37.5199058,
    "lng": 127.1320016,
    "name_ko": "한국체육대학교",
    "name_en": "Korea National Sport University",
    "campus_ko": "국립한국체육대학교",
    "campus_en": "Korea National Sport University",
    "addr_ko": "서울특별시 (05541) 서울특별시 송파구 양재대로 1239",
    "addr_en": "(05541) 1239 Yangjae-daero, Songpa-gu, Seoul, Seoul",
    "num_ap": 416,
    "realm": "knsu.ac.kr"
  },
  {
    "lat": 36.387983,
    "lng": 127.372314,
    "name_ko": "한국표준과학연구원",
    "name_en": "Korea Research Institute of Standards and Science",
    "campus_ko": "본원",
    "campus_en": "KRISS, Korea Research Institute of Standards and Science",
    "addr_ko": "",
    "addr_en": "",
    "num_ap": 0,
    "realm": "kriss.re.kr"
  },
  {
    "lat": 37.5989369,
    "lng": 126.8641855,
    "name_ko": "한국항공대학교",
    "name_en": "Korea Aerospace University",
    "campus_ko": "한국항공대학교",
    "campus_en": "Korea Aerospace University",
    "addr_ko": "경기도 (10540) 경기도 고양시 덕양구 항공대학로 76",
    "addr_en": "(10540) 76 Hanggongdaehak-ro, Deogyang-gu, Goyang-si, Gyeonggi-do, Gyeonggi-do",
    "num_ap": 341,
    "realm": "kau.ac.kr"
  },
  {
    "lat": 35.0744078,
    "lng": 129.0873486,
    "name_ko": "한국해양대학교",
    "name_en": "Korea Maritime and Ocean University",
    "campus_ko": "국립한국해양대학교",
    "campus_en": "Korea Maritime and Ocean University",
    "addr_ko": "부산광역시 (49112) 부산광역시 영도구 태종로 727",
    "addr_en": "(49112) 727 Taejong-ro, Yeongdo-gu, Busan, Busan",
    "num_ap": 237,
    "realm": "kmou.ac.kr"
  },
  {
    "lat": 36.3527987,
    "lng": 127.4233081,
    "name_ko": "한남대학교",
    "name_en": "Hannam University",
    "campus_ko": "한남대학교 오정동캠퍼스",
    "campus_en": "Hannam University, Daedeok Campus",
    "addr_ko": "대전광역시 (34430) 대전광역시 대덕구 한남로 70",
    "addr_en": "(34430) 70 Hannam-ro, Daedeok-gu, Daejeon, Daejeon",
    "num_ap": 0,
    "realm": "hnu.ac.kr"
  },
  {
    "lat": 36.3995578,
    "lng": 127.390766,
    "name_ko": "한남대학교",
    "name_en": "Hannam University",
    "campus_ko": "한남대학교 대덕밸리캠퍼스",
    "campus_en": "Hannam University, Daedeok Valley Campus",
    "addr_ko": "대전광역시 (34054) 대전광역시 유성구 문지로 125",
    "addr_en": "(34054) 125 Munji-ro, Yuseong-gu, Daejeon, Daejeon",
    "num_ap": 0,
    "realm": "hnu.ac.kr"
  },
  {
    "lat": 36.102302,
    "lng": 129.3892651,
    "name_ko": "한동대학교",
    "name_en": "Handong Global University",
    "campus_ko": "한동대학교",
    "campus_en": "Handong Global University",
    "addr_ko": "경상북도 (37554) 경상북도 포항시 북구 흥해읍 한동로 558",
    "addr_en": "(37554) 558 Handong-ro, Heunghae-eup, Buk-gu, Pohang-si, Gyeongsangbuk-do, Gyeongsangbuk-do",
    "num_ap": 359,
    "realm": "hgu.ac.kr"
  },
  {
    "lat": 37.8861062,
    "lng": 127.7399038,
    "name_ko": "한림대학교",
    "name_en": "Hallym University",
    "campus_ko": "한림대학교",
    "campus_en": "Hallym University",
    "addr_ko": "강원특별자치도 (24252) 강원특별자치도 춘천시 한림대학길 1",
    "addr_en": "(24252) 1 Hallymdaehak-gil, Chuncheon-si, Gangwon-do, Gangwon-do",
    "num_ap": 944,
    "realm": "hallym.ac.kr"
  },
  {
    "lat": 37.3441462,
    "lng": 126.9538557,
    "name_ko": "한세대학교",
    "name_en": "Hansei University",
    "campus_ko": "한세대학교",
    "campus_en": "Hansei University",
    "addr_ko": "경기도 (15852) 경기도 군포시 한세로 30",
    "addr_en": "(15852) 30 Hansei-ro, Gunpo-si, Gyeonggi-do, Gyeonggi-do",
    "num_ap": 0,
    "realm": "hansei.ac.kr"
  },
  {
    "lat": 37.5582766,
    "lng": 127.0482318,
    "name_ko": "한양대학교",
    "name_en": "Hanyang University",
    "campus_ko": "한양대학교 서울캠퍼스",
    "campus_en": "Hanyang University, Seoul Campus",
    "addr_ko": "서울특별시 (04763) 서울특별시 성동구 왕십리로 222",
    "addr_en": "(04763) 222 Wangsimni-ro, Seongdong-gu, Seoul, Seoul",
    "num_ap": 2525,
    "realm": "hanyang.ac.kr"
  },
  {
    "lat": 37.2980037,
    "lng": 126.8343934,
    "name_ko": "한양대학교",
    "name_en": "Hanyang University",
    "campus_ko": "한양대학교 ERICA캠퍼스",
    "campus_en": "Hanyang University, ERICA Campus",
    "addr_ko": "경기도 (15588) 경기도 안산시 상록구 한양대학로 55",
    "addr_en": "(15588) 55 Hanyangdaehak-ro, Sangnok-gu, Ansan-si, Gyeonggi-do, Gyeonggi-do",
    "num_ap": 982,
    "realm": "hanyang.ac.kr"
  },
  {
    "lat": 35.1499689,
    "lng": 126.7650387,
    "name_ko": "호남대학교",
    "name_en": "Honam University",
    "campus_ko": "호남대학교 광산캠퍼스",
    "campus_en": "Honam University, Gwangsan Campus",
    "addr_ko": "광주광역시 (62399) 광주광역시 광산구 어등대로 417",
    "addr_en": "(62399) 417 Eodeung-daero, Gwangsan-gu, Gwangju, Gwangju",
    "num_ap": 617,
    "realm": "honam.ac.kr"
  },
  {
    "lat": 36.6197753,
    "lng": 127.288098,
    "name_ko": "홍익대학교",
    "name_en": "Hongik University",
    "campus_ko": "홍익대학교 세종캠퍼스",
    "campus_en": "Hongik University, Sejong Campus",
    "addr_ko": "세종특별자치시 (30016) 세종특별자치시 조치원읍 세종로 2639",
    "addr_en": "(30016) 2639 Sejong-ro, Jochiwon-eup, Sejong, Sejong",
    "num_ap": 1291,
    "realm": "hongik.ac.kr"
  },
  {
    "lat": 37.5525246,
    "lng": 126.9250355,
    "name_ko": "홍익대학교",
    "name_en": "Hongik University",
    "campus_ko": "홍익대학교 서울캠퍼스",
    "campus_en": "Hongik University, Seoul Campus",
    "addr_ko": "서울특별시 (04066) 서울특별시 마포구 와우산로 94",
    "addr_en": "(04066) 94 Wausan-ro, Mapo-gu, Seoul, Seoul",
    "num_ap": 1291,
    "realm": "hongik.ac.kr"
  }
]